{
  "type": "FeatureCollection",
  "features": [
    {
      "type": "Feature",
      "id": 448,
      "geometry": { "type": "Point", "coordinates": [-122.175045063, 37.432973802] },
      "properties": {
        "NAME": "STANFORD UNIVERSITY",
        "ADDRESS": "NOT AVAILABLE",
        "CITY": "STANFORD",
        "STATE": "CA",
        "ZIP": "94305",
        "ZIP4": "NOT AVAILABLE",
        "TELEPHONE": "(650) 723-2300",
        "STATUS": "A",
        "POPULATION": 32626,
        "COUNTY": "SANTA CLARA",
        "COUNTYFIPS": "06085",
        "COUNTRY": "USA",
        "LATITUDE": 37.432973802000049,
        "LONGITUDE": -122.17504506299997,
        "NAICS_DESC": "COLLEGES, UNIVERSITIES, AND PROFESSIONAL SCHOOLS",
        "SOURCE": "https://nces.ed.gov/collegenavigator/?id=243744",
        "SOURCEDATE": "Thu, 31 Dec 2009 00:00:00 GMT",
        "VAL_METHOD": "IMAGERY",
        "VAL_DATE": "Tue, 12 Jul 2016 00:00:00 GMT",
        "WEBSITE": "www.stanford.edu/",

        "COFIPS": "085",
        "SECTOR": "2",
        "LEVEL_": "3",
        "HI_OFFER": "11",
        "DEG_GRANT": "1",
        "LOCALE": "21",
        "CLOSE_DATE": "-2",
        "MERGE_ID": "-2",
        "ALIAS": "NOT AVAILABLE",
        "SIZE_SET": "15",
        "INST_SIZE": "4",
        "PT_ENROLL": 1736,
        "FT_ENROLL": 14217,
        "TOT_ENROLL": 15953,
        "HOUSING": "1",
        "DORM_CAP": 14717,
        "TOT_EMP": 16673,
        "SHELTER_ID": "NOT AVAILABLE"
      }
    },
    {
      "type": "Feature",
      "id": 3463,
      "geometry": { "type": "Point", "coordinates": [-71.088068563, 42.340182758] },
      "properties": {
        "NAME": "NORTHEASTERN UNIVERSITY",
        "ADDRESS": "360 HUNTINGTON AVE",
        "CITY": "BOSTON",
        "STATE": "MA",
        "ZIP": "02115",
        "ZIP4": "5005",
        "TELEPHONE": "(617) 373-2000",
        "STATUS": "A",
        "POPULATION": 27955,
        "COUNTY": "SUFFOLK",
        "COUNTYFIPS": "25025",
        "COUNTRY": "USA",
        "LATITUDE": 42.340182758000026,
        "LONGITUDE": -71.088068562999979,
        "NAICS_DESC": "COLLEGES, UNIVERSITIES, AND PROFESSIONAL SCHOOLS",
        "SOURCE": "https://nces.ed.gov/collegenavigator/?id=167358",
        "SOURCEDATE": "Tue, 13 Oct 2009 00:00:00 GMT",
        "VAL_METHOD": "IMAGERY",
        "VAL_DATE": "Thu, 07 Jul 2016 00:00:00 GMT",
        "WEBSITE": "www.northeastern.edu/",
        "STFIPS": "25",
        "COFIPS": "025",
        "SECTOR": "2",
        "LEVEL_": "2",
        "HI_OFFER": "11",
        "DEG_GRANT": "1",
        "LOCALE": "11",
        "CLOSE_DATE": "-2",
        "MERGE_ID": "-2",
        "ALIAS": "NOT AVAILABLE",
        "SIZE_SET": "15",
        "INST_SIZE": "5",
        "PT_ENROLL": 857,
        "FT_ENROLL": 22048,
        "TOT_ENROLL": 22905,
        "HOUSING": "1",
        "DORM_CAP": 10011,
        "TOT_EMP": 5050,
        "SHELTER_ID": "NOT AVAILABLE"
      }
    },
    {
      "type": "Feature",
      "id": 5673,
      "geometry": { "type": "Point", "coordinates": [-121.938260384, 37.34935096] },
      "properties": {
        "NAME": "SANTA CLARA UNIVERSITY",
        "ADDRESS": "500 EL CAMINO REAL",
        "CITY": "SANTA CLARA",
        "STATE": "CA",
        "ZIP": "95053",
        "ZIP4": "NOT AVAILABLE",
        "TELEPHONE": "(408) 554-4000",
        "STATUS": "A",
        "POPULATION": 10459,
        "COUNTY": "SANTA CLARA",
        "COUNTYFIPS": "06085",
        "COUNTRY": "USA",
        "LATITUDE": 37.349350960000038,
        "LONGITUDE": -121.93826038399999,
        "NAICS_DESC": "COLLEGES, UNIVERSITIES, AND PROFESSIONAL SCHOOLS",
        "SOURCE": "https://nces.ed.gov/collegenavigator/?id=122931",
        "SOURCEDATE": "Tue, 13 Oct 2009 00:00:00 GMT",
        "VAL_METHOD": "IMAGERY/OTHER",
        "VAL_DATE": "Fri, 22 Jul 2016 00:00:00 GMT",
        "WEBSITE": "www.scu.edu/",

        "COFIPS": "085",
        "SECTOR": "2",
        "LEVEL_": "3",
        "HI_OFFER": "11",
        "DEG_GRANT": "1",
        "LOCALE": "12",
        "CLOSE_DATE": "-2",
        "MERGE_ID": "-2",
        "ALIAS": "SCU",
        "SIZE_SET": "18",
        "INST_SIZE": "3",
        "PT_ENROLL": 1185,
        "FT_ENROLL": 7431,
        "TOT_ENROLL": 8616,
        "HOUSING": "1",
        "DORM_CAP": 3537,
        "TOT_EMP": 1843,
        "SHELTER_ID": "NOT AVAILABLE"
      }
    },
    {
      "type": "Feature",
      "id": 5669,
      "geometry": { "type": "Point", "coordinates": [-117.071227857, 32.7752498] },
      "properties": {
        "NAME": "SAN DIEGO STATE UNIVERSITY",
        "ADDRESS": "5500 CAMPANILE DR",
        "CITY": "SAN DIEGO",
        "STATE": "CA",
        "ZIP": "92182",
        "ZIP4": "0001",
        "TELEPHONE": "(619) 594-5200",
        "TYPE": "1",
        "STATUS": "A",
        "POPULATION": 40053,
        "COUNTY": "SAN DIEGO",
        "COUNTYFIPS": "06073",
        "COUNTRY": "USA",
        "LATITUDE": 32.77524980000004,
        "LONGITUDE": -117.07122785699994,
        "NAICS_DESC": "COLLEGES, UNIVERSITIES, AND PROFESSIONAL SCHOOLS",
        "SOURCE": "https://nces.ed.gov/collegenavigator/?id=122409",
        "SOURCEDATE": "Tue, 13 Oct 2009 00:00:00 GMT",
        "VAL_METHOD": "IMAGERY",
        "VAL_DATE": "Tue, 19 Jul 2016 00:00:00 GMT",
        "WEBSITE": "www.sdsu.edu/",

        "COFIPS": "073",
        "SECTOR": "1",
        "LEVEL_": "1",
        "HI_OFFER": "11",
        "DEG_GRANT": "1",
        "LOCALE": "11",
        "CLOSE_DATE": "-2",
        "MERGE_ID": "-2",
        "ALIAS": "San Diego State",
        "SIZE_SET": "16",
        "INST_SIZE": "5",
        "PT_ENROLL": 5185,
        "FT_ENROLL": 31149,
        "TOT_ENROLL": 36334,
        "HOUSING": "1",
        "DORM_CAP": 7472,
        "TOT_EMP": 3719,
        "SHELTER_ID": "NOT AVAILABLE"
      }
    },
    {
      "type": "Feature",
      "id": 4260,
      "geometry": { "type": "Point", "coordinates": [-117.328766128, 33.9745475020001] },
      "properties": {
        "NAME": "UNIVERSITY OF CALIFORNIA-RIVERSIDE",
        "ADDRESS": "900 UNIVERSITY AVE",
        "CITY": "RIVERSIDE",
        "STATE": "CA",
        "ZIP": "92521",
        "ZIP4": "NOT AVAILABLE",
        "TELEPHONE": "(951) 827-1012",
        "TYPE": "1",
        "STATUS": "A",
        "POPULATION": 30913,
        "COUNTY": "RIVERSIDE",
        "COUNTYFIPS": "06065",
        "COUNTRY": "USA",
        "LATITUDE": 33.974547502000064,
        "LONGITUDE": -117.32876612799998,
        "NAICS_DESC": "COLLEGES, UNIVERSITIES, AND PROFESSIONAL SCHOOLS",
        "SOURCE": "https://nces.ed.gov/collegenavigator/?id=110671",
        "SOURCEDATE": "Tue, 13 Oct 2009 00:00:00 GMT",
        "VAL_METHOD": "IMAGERY/OTHER",
        "VAL_DATE": "Fri, 15 Jul 2016 00:00:00 GMT",
        "WEBSITE": "www.ucr.edu/",

        "COFIPS": "065",
        "SECTOR": "1",
        "LEVEL_": "1",
        "HI_OFFER": "11",
        "DEG_GRANT": "1",
        "LOCALE": "11",
        "CLOSE_DATE": "-2",
        "MERGE_ID": "-2",
        "ALIAS": "UC RIVERSIDE",
        "SIZE_SET": "15",
        "INST_SIZE": "5",
        "PT_ENROLL": 968,
        "FT_ENROLL": 25466,
        "TOT_ENROLL": 26434,
        "HOUSING": "1",
        "DORM_CAP": 7400,
        "TOT_EMP": 4479,
        "SHELTER_ID": "NOT AVAILABLE"
      }
    },
    {
      "type": "Feature",
      "id": 1114,
      "geometry": { "type": "Point", "coordinates": [-122.060726126, 36.999018417] },
      "properties": {
        "NAME": "UNIVERSITY OF CALIFORNIA-SANTA CRUZ",
        "ADDRESS": "1156 HIGH ST",
        "CITY": "SANTA CRUZ",
        "STATE": "CA",
        "ZIP": "95064",
        "ZIP4": "1011",
        "TELEPHONE": "(831) 459-0111",
        "TYPE": "1",
        "STATUS": "A",
        "POPULATION": 23091,
        "COUNTY": "SANTA CRUZ",
        "COUNTYFIPS": "06087",
        "COUNTRY": "USA",
        "LATITUDE": 36.999018417000059,
        "LONGITUDE": -122.06072612599996,
        "NAICS_DESC": "COLLEGES, UNIVERSITIES, AND PROFESSIONAL SCHOOLS",
        "SOURCE": "https://nces.ed.gov/collegenavigator/?id=110714",
        "SOURCEDATE": "Thu, 10 Dec 2009 00:00:00 GMT",
        "VAL_METHOD": "IMAGERY/OTHER",
        "VAL_DATE": "Wed, 27 Jul 2016 00:00:00 GMT",
        "WEBSITE": "www.ucsc.edu/",

        "COFIPS": "087",
        "SECTOR": "1",
        "LEVEL_": "1",
        "HI_OFFER": "12",
        "DEG_GRANT": "1",
        "LOCALE": "13",
        "CLOSE_DATE": "-2",
        "MERGE_ID": "-2",
        "ALIAS": "UC SANTA CRUZ",
        "SIZE_SET": "15",
        "INST_SIZE": "4",
        "PT_ENROLL": 751,
        "FT_ENROLL": 18410,
        "TOT_ENROLL": 19161,
        "HOUSING": "1",
        "DORM_CAP": 9291,
        "TOT_EMP": 3930,
        "SHELTER_ID": "NOT AVAILABLE"
      }
    },
    {
      "type": "Feature",
      "id": 5539,
      "geometry": { "type": "Point", "coordinates": [-117.819018981, 34.054273166] },
      "properties": {
        "NAME": "CALIFORNIA STATE POLYTECHNIC UNIVERSITY-POMONA",
        "ADDRESS": "3801 W TEMPLE AVENUE",
        "CITY": "POMONA",
        "STATE": "CA",
        "ZIP": "91768",
        "ZIP4": "NOT AVAILABLE",
        "TELEPHONE": "(909) 869-7659",
        "TYPE": "1",
        "STATUS": "A",
        "POPULATION": 32636,
        "COUNTY": "LOS ANGELES",
        "COUNTYFIPS": "06037",
        "COUNTRY": "USA",
        "LATITUDE": 34.05427316600003,
        "LONGITUDE": -117.81901898099994,
        "NAICS_DESC": "COLLEGES, UNIVERSITIES, AND PROFESSIONAL SCHOOLS",
        "SOURCE": "https://nces.ed.gov/collegenavigator/?id=110529",
        "SOURCEDATE": "Tue, 13 Oct 2009 00:00:00 GMT",
        "VAL_METHOD": "IMAGERY",
        "VAL_DATE": "Fri, 15 Jul 2016 00:00:00 GMT",
        "WEBSITE": "www.cpp.edu/",

        "COFIPS": "037",
        "SECTOR": "1",
        "LEVEL_": "1",
        "HI_OFFER": "14",
        "DEG_GRANT": "1",
        "LOCALE": "21",
        "CLOSE_DATE": "-2",
        "MERGE_ID": "-2",
        "ALIAS": "Cal Poly Pomona",
        "SIZE_SET": "18",
        "INST_SIZE": "5",
        "PT_ENROLL": 4647,
        "FT_ENROLL": 25367,
        "TOT_ENROLL": 30014,
        "HOUSING": "1",
        "DORM_CAP": 4131,
        "TOT_EMP": 2622,
        "SHELTER_ID": "NOT AVAILABLE"
      }
    },
    {
      "type": "Feature",
      "id": 600,
      "geometry": { "type": "Point", "coordinates": [-120.424944153, 37.366237346] },
      "properties": {
        "NAME": "UNIVERSITY OF CALIFORNIA-MERCED",
        "ADDRESS": "5200 NORTH LAKE ROAD",
        "CITY": "MERCED",
        "STATE": "CA",
        "ZIP": "95343",
        "ZIP4": "5603",
        "TELEPHONE": "(209) 228-4400",
        "TYPE": "1",
        "STATUS": "A",
        "POPULATION": 10802,
        "COUNTY": "MERCED",
        "COUNTYFIPS": "06047",
        "COUNTRY": "USA",
        "LATITUDE": 37.366237346000048,
        "LONGITUDE": -120.42494415299996,
        "NAICS_DESC": "COLLEGES, UNIVERSITIES, AND PROFESSIONAL SCHOOLS",
        "SOURCE": "https://nces.ed.gov/collegenavigator/?id=445188",
        "SOURCEDATE": "Tue, 13 Oct 2009 00:00:00 GMT",
        "VAL_METHOD": "IMAGERY",
        "VAL_DATE": "Thu, 07 Jul 2016 00:00:00 GMT",
        "WEBSITE": "ucmerced.edu/",

        "COFIPS": "047",
        "SECTOR": "1",
        "LEVEL_": "3",
        "HI_OFFER": "12",
        "DEG_GRANT": "1",
        "LOCALE": "41",
        "CLOSE_DATE": "-2",
        "MERGE_ID": "-2",
        "ALIAS": "UC MERCED",
        "SIZE_SET": "16",
        "INST_SIZE": "3",
        "PT_ENROLL": 87,
        "FT_ENROLL": 8931,
        "TOT_ENROLL": 9018,
        "HOUSING": "1",
        "DORM_CAP": 4016,
        "TOT_EMP": 1784,
        "SHELTER_ID": "NOT AVAILABLE"
      }
    },
    {
      "type": "Feature",
      "id": 2441,
      "geometry": { "type": "Point", "coordinates": [-118.283858, 34.021058] },
      "properties": {
        "NAME": "UNIVERSITY OF SOUTHERN CALIFORNIA",
        "ADDRESS": "UNIVERSITY PARK",
        "CITY": "LOS ANGELES",
        "STATE": "CA",
        "ZIP": "90089",
        "ZIP4": "NOT AVAILABLE",
        "TELEPHONE": "(213) 740-2311",
        "STATUS": "A",
        "POPULATION": 62935,
        "COUNTY": "LOS ANGELES",
        "COUNTYFIPS": "06037",
        "COUNTRY": "USA",
        "LATITUDE": 34.021058000000039,
        "LONGITUDE": -118.28385799999995,
        "NAICS_DESC": "COLLEGES, UNIVERSITIES, AND PROFESSIONAL SCHOOLS",
        "SOURCE": "https://nces.ed.gov/collegenavigator/?id=123961",
        "SOURCEDATE": "Thu, 31 Dec 2009 00:00:00 GMT",
        "VAL_METHOD": "IMAGERY",
        "VAL_DATE": "Mon, 25 Jul 2016 00:00:00 GMT",
        "WEBSITE": "www.usc.edu/",

        "COFIPS": "037",
        "SECTOR": "2",
        "LEVEL_": "2",
        "HI_OFFER": "11",
        "DEG_GRANT": "1",
        "LOCALE": "11",
        "CLOSE_DATE": "-2",
        "MERGE_ID": "-2",
        "ALIAS": "USC",
        "SIZE_SET": "15",
        "INST_SIZE": "5",
        "PT_ENROLL": 7680,
        "FT_ENROLL": 38607,
        "TOT_ENROLL": 46287,
        "HOUSING": "1",
        "DORM_CAP": 8700,
        "TOT_EMP": 16648,
        "SHELTER_ID": "NOT AVAILABLE"
      }
    },
    {
      "type": "Feature",
      "id": 5115,
      "geometry": { "type": "Point", "coordinates": [-86.914435, 40.428206] },
      "properties": {
        "NAME": "PURDUE UNIVERSITY",
        "ADDRESS": "HOVDE HALL OF ADMINISTRATION",
        "CITY": "WEST LAFAYETTE",
        "STATE": "IN",
        "ZIP": "47907",
        "ZIP4": "2040",
        "TELEPHONE": "(765) 494-4600",
        "TYPE": "1",
        "STATUS": "A",
        "POPULATION": 58024,
        "COUNTY": "TIPPECANOE",
        "COUNTYFIPS": "18157",
        "COUNTRY": "USA",
        "LATITUDE": 40.428206000000046,
        "LONGITUDE": -86.914434999999969,
        "NAICS_DESC": "COLLEGES, UNIVERSITIES, AND PROFESSIONAL SCHOOLS",
        "SOURCE": "https://nces.ed.gov/collegenavigator/?id=243780",
        "SOURCEDATE": "Thu, 31 Dec 2009 00:00:00 GMT",
        "VAL_METHOD": "IMAGERY",
        "VAL_DATE": "Mon, 08 Aug 2016 00:00:00 GMT",
        "WEBSITE": "https://www.purdue.edu/",
        "STFIPS": "18",
        "COFIPS": "157",
        "SECTOR": "1",
        "LEVEL_": "1",
        "HI_OFFER": "11",
        "DEG_GRANT": "1",
        "LOCALE": "13",
        "CLOSE_DATE": "-2",
        "MERGE_ID": "-2",
        "ALIAS": "PURDUE-WEST LAFAYETTE|PURDUE|PU|PURDUE-WL",
        "SIZE_SET": "15",
        "INST_SIZE": "5",
        "PT_ENROLL": 6995,
        "FT_ENROLL": 39660,
        "TOT_ENROLL": 46655,
        "HOUSING": "1",
        "DORM_CAP": 14094,
        "TOT_EMP": 11369,
        "SHELTER_ID": "NOT AVAILABLE"
      }
    },
    {
      "type": "Feature",
      "id": 2323,
      "geometry": { "type": "Point", "coordinates": [-117.709758339, 34.1057167640001] },
      "properties": {
        "NAME": "HARVEY MUDD COLLEGE",
        "ADDRESS": "301 PLATT BLVD.",
        "CITY": "CLAREMONT",
        "STATE": "CA",
        "ZIP": "91711",
        "ZIP4": "NOT AVAILABLE",
        "TELEPHONE": "(909) 621-8000",
        "STATUS": "A",
        "POPULATION": 1210,
        "COUNTY": "LOS ANGELES",
        "COUNTYFIPS": "06037",
        "COUNTRY": "USA",
        "LATITUDE": 34.105716764000078,
        "LONGITUDE": -117.70975833899996,
        "NAICS_DESC": "COLLEGES, UNIVERSITIES, AND PROFESSIONAL SCHOOLS",
        "SOURCE": "https://nces.ed.gov/collegenavigator/?id=115409",
        "SOURCEDATE": "Tue, 13 Oct 2009 00:00:00 GMT",
        "VAL_METHOD": "IMAGERY/OTHER",
        "VAL_DATE": "Mon, 25 Jul 2016 00:00:00 GMT",
        "WEBSITE": "https://www.hmc.edu/",

        "COFIPS": "037",
        "SECTOR": "2",
        "LEVEL_": "2",
        "HI_OFFER": "30",
        "DEG_GRANT": "1",
        "LOCALE": "21",
        "CLOSE_DATE": "-2",
        "MERGE_ID": "-2",
        "ALIAS": "MUDD, HMC",
        "SIZE_SET": "21",
        "INST_SIZE": "1",
        "PT_ENROLL": 33,
        "FT_ENROLL": 821,
        "TOT_ENROLL": 854,
        "HOUSING": "1",
        "DORM_CAP": 930,
        "TOT_EMP": 356,
        "SHELTER_ID": "NOT AVAILABLE"
      }
    },
    {
      "type": "Feature",
      "id": 4259,
      "geometry": { "type": "Point", "coordinates": [-121.75103001, 38.538205583] },
      "properties": {
        "NAME": "UNIVERSITY OF CALIFORNIA-DAVIS",
        "ADDRESS": "ONE SHIELDS AVENUE",
        "CITY": "DAVIS",
        "STATE": "CA",
        "ZIP": "95616",
        "ZIP4": "8678",
        "TELEPHONE": "(530) 752-1011",
        "TYPE": "1",
        "STATUS": "A",
        "POPULATION": 52829,
        "COUNTY": "YOLO",
        "COUNTYFIPS": "06113",
        "COUNTRY": "USA",
        "LATITUDE": 38.538205583000035,
        "LONGITUDE": -121.75103000999997,
        "NAICS_DESC": "COLLEGES, UNIVERSITIES, AND PROFESSIONAL SCHOOLS",
        "SOURCE": "https://nces.ed.gov/collegenavigator/?id=110644",
        "SOURCEDATE": "Thu, 10 Dec 2009 00:00:00 GMT",
        "VAL_METHOD": "IMAGERY/OTHER",
        "VAL_DATE": "Fri, 15 Jul 2016 00:00:00 GMT",
        "WEBSITE": "ucdavis.edu/",

        "COFIPS": "113",
        "SECTOR": "1",
        "LEVEL_": "1",
        "HI_OFFER": "11",
        "DEG_GRANT": "1",
        "LOCALE": "23",
        "CLOSE_DATE": "-2",
        "MERGE_ID": "-2",
        "ALIAS": "UC DAVIS",
        "SIZE_SET": "15",
        "INST_SIZE": "5",
        "PT_ENROLL": 1616,
        "FT_ENROLL": 37458,
        "TOT_ENROLL": 39074,
        "HOUSING": "1",
        "DORM_CAP": 8284,
        "TOT_EMP": 13755,
        "SHELTER_ID": "NOT AVAILABLE"
      }
    },
    {
      "type": "Feature",
      "id": 5769,
      "geometry": { "type": "Point", "coordinates": [-121.88045846, 37.3375086940001] },
      "properties": {
        "NAME": "SAN JOSE STATE UNIVERSITY",
        "ADDRESS": "ONE WASHINGTON SQUARE",
        "CITY": "SAN JOSE",
        "STATE": "CA",
        "ZIP": "95192",
        "ZIP4": "0001",
        "TELEPHONE": "(408) 924-1000",
        "TYPE": "1",
        "STATUS": "A",
        "POPULATION": 39794,
        "COUNTY": "SANTA CLARA",
        "COUNTYFIPS": "06085",
        "COUNTRY": "USA",
        "LATITUDE": 37.337508694000064,
        "LONGITUDE": -121.88045845999994,
        "NAICS_DESC": "COLLEGES, UNIVERSITIES, AND PROFESSIONAL SCHOOLS",
        "SOURCE": "https://nces.ed.gov/collegenavigator/?id=122755",
        "SOURCEDATE": "Thu, 10 Dec 2009 00:00:00 GMT",
        "VAL_METHOD": "IMAGERY/OTHER",
        "VAL_DATE": "Wed, 27 Jul 2016 00:00:00 GMT",
        "WEBSITE": "www.sjsu.edu/",

        "COFIPS": "085",
        "SECTOR": "1",
        "LEVEL_": "1",
        "HI_OFFER": "13",
        "DEG_GRANT": "1",
        "LOCALE": "11",
        "CLOSE_DATE": "-2",
        "MERGE_ID": "-2",
        "ALIAS": "San Jose State",
        "SIZE_SET": "18",
        "INST_SIZE": "5",
        "PT_ENROLL": 8768,
        "FT_ENROLL": 27440,
        "TOT_ENROLL": 36208,
        "HOUSING": "1",
        "DORM_CAP": 4261,
        "TOT_EMP": 3586,
        "SHELTER_ID": "NOT AVAILABLE"
      }
    },
    {
      "type": "Feature",
      "id": 1067,
      "geometry": { "type": "Point", "coordinates": [-117.837785, 33.6431630000001] },
      "properties": {
        "NAME": "UNIVERSITY OF CALIFORNIA-IRVINE",
        "ADDRESS": "501 ALDRICH HALL",
        "CITY": "IRVINE",
        "STATE": "CA",
        "ZIP": "92697",
        "ZIP4": "NOT AVAILABLE",
        "TELEPHONE": "(949) 824-5011",
        "TYPE": "1",
        "STATUS": "A",
        "POPULATION": 45633,
        "COUNTY": "ORANGE",
        "COUNTYFIPS": "06059",
        "COUNTRY": "USA",
        "LATITUDE": 33.643163000000072,
        "LONGITUDE": -117.83778499999994,
        "NAICS_DESC": "COLLEGES, UNIVERSITIES, AND PROFESSIONAL SCHOOLS",
        "SOURCE": "https://nces.ed.gov/collegenavigator/?id=110653",
        "SOURCEDATE": "Thu, 31 Dec 2009 00:00:00 GMT",
        "VAL_METHOD": "IMAGERY",
        "VAL_DATE": "Fri, 15 Jul 2016 00:00:00 GMT",
        "WEBSITE": "www.uci.edu/",

        "COFIPS": "059",
        "SECTOR": "1",
        "LEVEL_": "1",
        "HI_OFFER": "11",
        "DEG_GRANT": "1",
        "LOCALE": "11",
        "CLOSE_DATE": "-2",
        "MERGE_ID": "-2",
        "ALIAS": "UCI, UC IRVINE",
        "SIZE_SET": "15",
        "INST_SIZE": "5",
        "PT_ENROLL": 984,
        "FT_ENROLL": 35319,
        "TOT_ENROLL": 36303,
        "HOUSING": "1",
        "DORM_CAP": 13000,
        "TOT_EMP": 9330,
        "SHELTER_ID": "NOT AVAILABLE"
      }
    },
    {
      "type": "Feature",
      "id": 1065,
      "geometry": { "type": "Point", "coordinates": [-120.661596881, 35.3023759550001] },
      "properties": {
        "NAME": "CALIFORNIA POLYTECHNIC STATE UNIVERSITY-SAN LUIS OBISPO",
        "ADDRESS": "1 GRAND AVE.",
        "CITY": "SAN LUIS OBISPO",
        "STATE": "CA",
        "ZIP": "93407",
        "ZIP4": "NOT AVAILABLE",
        "TELEPHONE": "(805) 756-1111",
        "TYPE": "1",
        "STATUS": "A",
        "POPULATION": 25254,
        "COUNTY": "SAN LUIS OBISPO",
        "COUNTYFIPS": "06079",
        "COUNTRY": "USA",
        "LATITUDE": 35.302375955000059,
        "LONGITUDE": -120.66159688099998,
        "NAICS_DESC": "COLLEGES, UNIVERSITIES, AND PROFESSIONAL SCHOOLS",
        "SOURCE": "https://nces.ed.gov/collegenavigator/?id=110422",
        "SOURCEDATE": "Tue, 13 Oct 2009 00:00:00 GMT",
        "VAL_METHOD": "IMAGERY/OTHER",
        "VAL_DATE": "Fri, 15 Jul 2016 00:00:00 GMT",
        "WEBSITE": "calpoly.edu/",

        "COFIPS": "079",
        "SECTOR": "1",
        "LEVEL_": "1",
        "HI_OFFER": "20",
        "DEG_GRANT": "1",
        "LOCALE": "23",
        "CLOSE_DATE": "-2",
        "MERGE_ID": "-2",
        "ALIAS": "CAL POLY",
        "SIZE_SET": "18",
        "INST_SIZE": "5",
        "PT_ENROLL": 1517,
        "FT_ENROLL": 20923,
        "TOT_ENROLL": 22440,
        "HOUSING": "1",
        "DORM_CAP": 7764,
        "TOT_EMP": 2814,
        "SHELTER_ID": "NOT AVAILABLE"
      }
    },
    {
      "type": "Feature",
      "id": 1070,
      "geometry": { "type": "Point", "coordinates": [-119.851493, 34.4123440000001] },
      "properties": {
        "NAME": "UNIVERSITY OF CALIFORNIA-SANTA BARBARA",
        "ADDRESS": "5221 CHEADLE HALL",
        "CITY": "SANTA BARBARA",
        "STATE": "CA",
        "ZIP": "93106",
        "ZIP4": "NOT AVAILABLE",
        "TELEPHONE": "(805) 893-8000",
        "TYPE": "1",
        "STATUS": "A",
        "POPULATION": 31335,
        "COUNTY": "SANTA BARBARA",
        "COUNTYFIPS": "06083",
        "COUNTRY": "USA",
        "LATITUDE": 34.412344000000076,
        "LONGITUDE": -119.85149299999995,
        "NAICS_DESC": "COLLEGES, UNIVERSITIES, AND PROFESSIONAL SCHOOLS",
        "SOURCE": "https://nces.ed.gov/collegenavigator/?id=110705",
        "SOURCEDATE": "Thu, 31 Dec 2009 00:00:00 GMT",
        "VAL_METHOD": "IMAGERY",
        "VAL_DATE": "Fri, 15 Jul 2016 00:00:00 GMT",
        "WEBSITE": "www.ucsb.edu/",

        "COFIPS": "083",
        "SECTOR": "1",
        "LEVEL_": "2",
        "HI_OFFER": "12",
        "DEG_GRANT": "1",
        "LOCALE": "22",
        "CLOSE_DATE": "-2",
        "MERGE_ID": "-2",
        "ALIAS": "UCSB, UC SANTA BARBARA",
        "SIZE_SET": "15",
        "INST_SIZE": "5",
        "PT_ENROLL": 925,
        "FT_ENROLL": 25254,
        "TOT_ENROLL": 26179,
        "HOUSING": "1",
        "DORM_CAP": 9665,
        "TOT_EMP": 5156,
        "SHELTER_ID": "NOT AVAILABLE"
      }
    },
    {
      "type": "Feature",
      "id": 1069,
      "geometry": { "type": "Point", "coordinates": [-117.237793479, 32.8765976550001] },
      "properties": {
        "NAME": "UNIVERSITY OF CALIFORNIA-SAN DIEGO",
        "ADDRESS": "9500 GILMAN DR",
        "CITY": "LA JOLLA",
        "STATE": "CA",
        "ZIP": "92093",
        "ZIP4": "NOT AVAILABLE",
        "TELEPHONE": "(858) 534-2230",
        "TYPE": "1",
        "STATUS": "A",
        "POPULATION": 55842,
        "COUNTY": "SAN DIEGO",
        "COUNTYFIPS": "06073",
        "COUNTRY": "USA",
        "LATITUDE": 32.876597655000069,
        "LONGITUDE": -117.23779347899995,
        "NAICS_DESC": "COLLEGES, UNIVERSITIES, AND PROFESSIONAL SCHOOLS",
        "SOURCE": "https://nces.ed.gov/collegenavigator/?id=110680",
        "SOURCEDATE": "Tue, 13 Oct 2009 00:00:00 GMT",
        "VAL_METHOD": "IMAGERY",
        "VAL_DATE": "Fri, 15 Jul 2016 00:00:00 GMT",
        "WEBSITE": "www.ucsd.edu/",

        "COFIPS": "073",
        "SECTOR": "1",
        "LEVEL_": "1",
        "HI_OFFER": "11",
        "DEG_GRANT": "1",
        "LOCALE": "11",
        "CLOSE_DATE": "-2",
        "MERGE_ID": "-2",
        "ALIAS": "UCSD, UC SAN DIEGO",
        "SIZE_SET": "15",
        "INST_SIZE": "5",
        "PT_ENROLL": 1504,
        "FT_ENROLL": 38072,
        "TOT_ENROLL": 39576,
        "HOUSING": "1",
        "DORM_CAP": 17598,
        "TOT_EMP": 16266,
        "SHELTER_ID": "NOT AVAILABLE"
      }
    },
    {
      "type": "Feature",
      "id": 3533,
      "geometry": { "type": "Point", "coordinates": [-74.657697813, 40.3471414210001] },
      "properties": {
        "NAME": "PRINCETON UNIVERSITY",
        "ADDRESS": "1 NASSAU HALL",
        "CITY": "PRINCETON",
        "STATE": "NJ",
        "ZIP": "08544",
        "ZIP4": "0070",
        "TELEPHONE": "(609) 258-3000",
        "STATUS": "A",
        "POPULATION": 14959,
        "COUNTY": "MERCER",
        "COUNTYFIPS": "34021",
        "COUNTRY": "USA",
        "LATITUDE": 40.34714142100006,
        "LONGITUDE": -74.65769781299997,
        "NAICS_DESC": "COLLEGES, UNIVERSITIES, AND PROFESSIONAL SCHOOLS",
        "SOURCE": "https://nces.ed.gov/collegenavigator/?id=186131",
        "SOURCEDATE": "Thu, 31 Dec 2009 00:00:00 GMT",
        "VAL_METHOD": "IMAGERY",
        "VAL_DATE": "Thu, 07 Jul 2016 00:00:00 GMT",
        "WEBSITE": "www.princeton.edu/",
        "STFIPS": "34",
        "COFIPS": "021",
        "SECTOR": "2",
        "LEVEL_": "1",
        "HI_OFFER": "12",
        "DEG_GRANT": "1",
        "LOCALE": "13",
        "CLOSE_DATE": "-2",
        "MERGE_ID": "-2",
        "ALIAS": "NOT AVAILABLE",
        "SIZE_SET": "15",
        "INST_SIZE": "3",
        "PT_ENROLL": 85,
        "FT_ENROLL": 7768,
        "TOT_ENROLL": 7853,
        "HOUSING": "1",
        "DORM_CAP": 5113,
        "TOT_EMP": 7106,
        "SHELTER_ID": "NOT AVAILABLE"
      }
    },
    {
      "type": "Feature",
      "id": 411,
      "geometry": { "type": "Point", "coordinates": [-79.9434850709999, 40.4435975910001] },
      "properties": {
        "NAME": "CARNEGIE MELLON UNIVERSITY",
        "ADDRESS": "5000 FORBES AVENUE",
        "CITY": "PITTSBURGH",
        "STATE": "PA",
        "ZIP": "15213",
        "ZIP4": "3890",
        "TELEPHONE": "(412) 268-2000",
        "STATUS": "A",
        "POPULATION": 19307,
        "COUNTY": "ALLEGHENY",
        "COUNTYFIPS": "42003",
        "COUNTRY": "USA",
        "LATITUDE": 40.443597591000071,
        "LONGITUDE": -79.943485070999941,
        "NAICS_DESC": "COLLEGES, UNIVERSITIES, AND PROFESSIONAL SCHOOLS",
        "SOURCE": "https://nces.ed.gov/collegenavigator/?id=211440",
        "SOURCEDATE": "Thu, 10 Dec 2009 00:00:00 GMT",
        "VAL_METHOD": "IMAGERY/OTHER",
        "VAL_DATE": "Fri, 19 Aug 2016 00:00:00 GMT",
        "WEBSITE": "www.cmu.edu/",
        "STFIPS": "42",
        "COFIPS": "003",
        "SECTOR": "2",
        "LEVEL_": "1",
        "HI_OFFER": "12",
        "DEG_GRANT": "1",
        "LOCALE": "11",
        "CLOSE_DATE": "-2",
        "MERGE_ID": "-2",
        "ALIAS": "CARNEGIE MELLON; CMU",
        "SIZE_SET": "15",
        "INST_SIZE": "4",
        "PT_ENROLL": 1199,
        "FT_ENROLL": 12320,
        "TOT_ENROLL": 13519,
        "HOUSING": "1",
        "DORM_CAP": 4055,
        "TOT_EMP": 5788,
        "SHELTER_ID": "NOT AVAILABLE"
      }
    },
    {
      "type": "Feature",
      "id": 802,
      "geometry": { "type": "Point", "coordinates": [-71.402925109, 41.82685309] },
      "properties": {
        "NAME": "BROWN UNIVERSITY",
        "ADDRESS": "ONE PROSPECT STREET",
        "CITY": "PROVIDENCE",
        "STATE": "RI",
        "ZIP": "02912",
        "ZIP4": "NOT AVAILABLE",
        "TELEPHONE": "(401) 863-1000",
        "STATUS": "A",
        "POPULATION": 14602,
        "COUNTY": "PROVIDENCE",
        "COUNTYFIPS": "44007",
        "COUNTRY": "USA",
        "LATITUDE": 41.826853090000043,
        "LONGITUDE": -71.402925108999966,
        "NAICS_DESC": "COLLEGES, UNIVERSITIES, AND PROFESSIONAL SCHOOLS",
        "SOURCE": "https://nces.ed.gov/collegenavigator/?id=217156",
        "SOURCEDATE": "Thu, 31 Dec 2009 00:00:00 GMT",
        "VAL_METHOD": "IMAGERY",
        "VAL_DATE": "Wed, 24 Aug 2016 00:00:00 GMT",
        "WEBSITE": "www.brown.edu/",
        "STFIPS": "44",
        "COFIPS": "007",
        "SECTOR": "2",
        "LEVEL_": "3",
        "HI_OFFER": "11",
        "DEG_GRANT": "1",
        "LOCALE": "12",
        "CLOSE_DATE": "-2",
        "MERGE_ID": "-2",
        "ALIAS": "NOT AVAILABLE",
        "SIZE_SET": "15",
        "INST_SIZE": "3",
        "PT_ENROLL": 335,
        "FT_ENROLL": 9613,
        "TOT_ENROLL": 9948,
        "HOUSING": "1",
        "DORM_CAP": 4903,
        "TOT_EMP": 4654,
        "SHELTER_ID": "NOT AVAILABLE"
      }
    },
    {
      "type": "Feature",
      "id": 4537,
      "geometry": { "type": "Point", "coordinates": [-76.476535, 42.448713] },
      "properties": {
        "NAME": "CORNELL UNIVERSITY",
        "ADDRESS": "300 DAY HALL",
        "CITY": "ITHACA",
        "STATE": "NY",
        "ZIP": "14853",
        "ZIP4": "NOT AVAILABLE",
        "TELEPHONE": "(607) 255-2000",
        "STATUS": "A",
        "POPULATION": 34682,
        "COUNTY": "TOMPKINS",
        "COUNTYFIPS": "36109",
        "COUNTRY": "USA",
        "LATITUDE": 42.448713000000055,
        "LONGITUDE": -76.476534999999956,
        "NAICS_DESC": "COLLEGES, UNIVERSITIES, AND PROFESSIONAL SCHOOLS",
        "SOURCE": "https://nces.ed.gov/collegenavigator/?id=190415",
        "SOURCEDATE": "Thu, 31 Dec 2009 00:00:00 GMT",
        "VAL_METHOD": "IMAGERY",
        "VAL_DATE": "Fri, 03 Jun 2016 00:00:00 GMT",
        "WEBSITE": "www.cornell.edu/",
        "STFIPS": "36",
        "COFIPS": "109",
        "SECTOR": "2",
        "LEVEL_": "1",
        "HI_OFFER": "11",
        "DEG_GRANT": "1",
        "LOCALE": "13",
        "CLOSE_DATE": "-2",
        "MERGE_ID": "-2",
        "ALIAS": "NOT AVAILABLE",
        "SIZE_SET": "15",
        "INST_SIZE": "5",
        "PT_ENROLL": 645,
        "FT_ENROLL": 22975,
        "TOT_ENROLL": 23620,
        "HOUSING": "1",
        "DORM_CAP": 7135,
        "TOT_EMP": 11062,
        "SHELTER_ID": "NOT AVAILABLE"
      }
    },
    {
      "type": "Feature",
      "id": 1068,
      "geometry": { "type": "Point", "coordinates": [-118.443900501, 34.0688923000001] },
      "properties": {
        "NAME": "UNIVERSITY OF CALIFORNIA-LOS ANGELES",
        "ADDRESS": "405 HILGARD AVE",
        "CITY": "LOS ANGELES",
        "STATE": "CA",
        "ZIP": "90095",
        "ZIP4": "1405",
        "TELEPHONE": "(310) 825-4321",
        "TYPE": "1",
        "STATUS": "A",
        "POPULATION": 69845,
        "COUNTY": "LOS ANGELES",
        "COUNTYFIPS": "06037",
        "COUNTRY": "USA",
        "LATITUDE": 34.068892300000073,
        "LONGITUDE": -118.44390050099997,
        "NAICS_DESC": "COLLEGES, UNIVERSITIES, AND PROFESSIONAL SCHOOLS",
        "SOURCE": "https://nces.ed.gov/collegenavigator/?id=110662",
        "SOURCEDATE": "Tue, 13 Oct 2009 00:00:00 GMT",
        "VAL_METHOD": "IMAGERY",
        "VAL_DATE": "Fri, 15 Jul 2016 00:00:00 GMT",
        "WEBSITE": "www.ucla.edu/",

        "COFIPS": "037",
        "SECTOR": "1",
        "LEVEL_": "2",
        "HI_OFFER": "11",
        "DEG_GRANT": "1",
        "LOCALE": "11",
        "CLOSE_DATE": "-2",
        "MERGE_ID": "-2",
        "ALIAS": "UCLA",
        "SIZE_SET": "15",
        "INST_SIZE": "5",
        "PT_ENROLL": 1650,
        "FT_ENROLL": 42939,
        "TOT_ENROLL": 44589,
        "HOUSING": "1",
        "DORM_CAP": 19093,
        "TOT_EMP": 25256,
        "SHELTER_ID": "NOT AVAILABLE"
      }
    },
    {
      "type": "Feature",
      "id": 2328,
      "geometry": { "type": "Point", "coordinates": [-118.12556745, 34.139180938] },
      "properties": {
        "NAME": "CALIFORNIA INSTITUTE OF TECHNOLOGY",
        "ADDRESS": "1200 E CALIFORNIA BLVD",
        "CITY": "PASADENA",
        "STATE": "CA",
        "ZIP": "91125",
        "ZIP4": "NOT AVAILABLE",
        "TELEPHONE": "(626) 395-6811",
        "STATUS": "A",
        "POPULATION": 5508,
        "COUNTY": "LOS ANGELES",
        "COUNTYFIPS": "06037",
        "COUNTRY": "USA",
        "LATITUDE": 34.139180938000038,
        "LONGITUDE": -118.12556744999995,
        "NAICS_DESC": "COLLEGES, UNIVERSITIES, AND PROFESSIONAL SCHOOLS",
        "SOURCE": "https://nces.ed.gov/collegenavigator/?id=110404",
        "SOURCEDATE": "Tue, 13 Oct 2009 00:00:00 GMT",
        "VAL_METHOD": "IMAGERY/OTHER",
        "VAL_DATE": "Tue, 26 Jul 2016 00:00:00 GMT",
        "WEBSITE": "www.caltech.edu/",

        "COFIPS": "037",
        "SECTOR": "2",
        "LEVEL_": "1",
        "HI_OFFER": "12",
        "DEG_GRANT": "1",
        "LOCALE": "12",
        "CLOSE_DATE": "-2",
        "MERGE_ID": "-2",
        "ALIAS": "CALTECH",
        "SIZE_SET": "15",
        "INST_SIZE": "2",
        "PT_ENROLL": -999,
        "FT_ENROLL": 2240,
        "TOT_ENROLL": 2240,
        "HOUSING": "1",
        "DORM_CAP": 1547,
        "TOT_EMP": 3268,
        "SHELTER_ID": "NOT AVAILABLE"
      }
    },
    {
      "type": "Feature",
      "id": 6028,
      "geometry": { "type": "Point", "coordinates": [-71.092114581, 42.360095344] },
      "properties": {
        "NAME": "MASSACHUSETTS INSTITUTE OF TECHNOLOGY",
        "ADDRESS": "77 MASSACHUSETTS AVENUE",
        "CITY": "CAMBRIDGE",
        "STATE": "MA",
        "ZIP": "02139",
        "ZIP4": "4307",
        "TELEPHONE": "(617) 253-1000",
        "STATUS": "A",
        "POPULATION": 25286,
        "COUNTY": "MIDDLESEX",
        "COUNTYFIPS": "25017",
        "COUNTRY": "USA",
        "LATITUDE": 42.360095344000058,
        "LONGITUDE": -71.092114580999976,
        "NAICS_DESC": "COLLEGES, UNIVERSITIES, AND PROFESSIONAL SCHOOLS",
        "SOURCE": "https://nces.ed.gov/collegenavigator/?id=166683",
        "SOURCEDATE": "Tue, 13 Oct 2009 00:00:00 GMT",
        "VAL_METHOD": "IMAGERY/OTHER",
        "VAL_DATE": "Tue, 28 Jun 2016 00:00:00 GMT",
        "WEBSITE": "web.mit.edu/",
        "STFIPS": "25",
        "COFIPS": "017",
        "SECTOR": "2",
        "LEVEL_": "3",
        "HI_OFFER": "12",
        "DEG_GRANT": "1",
        "LOCALE": "12",
        "CLOSE_DATE": "-2",
        "MERGE_ID": "-2",
        "ALIAS": "MIT, M.I.T.",
        "SIZE_SET": "15",
        "INST_SIZE": "4",
        "PT_ENROLL": 254,
        "FT_ENROLL": 11000,
        "TOT_ENROLL": 11254,
        "HOUSING": "1",
        "DORM_CAP": 5965,
        "TOT_EMP": 14032,
        "SHELTER_ID": "NOT AVAILABLE"
      }
    },
    {
      "type": "Feature",
      "id": 3793,
      "geometry": { "type": "Point", "coordinates": [-122.24851, 37.8757590000001] },
      "properties": {
        "NAME": "UNIVERSITY OF CALIFORNIA-BERKELEY",
        "ADDRESS": "200 CALIFORNIA HALL",
        "CITY": "BERKELEY",
        "STATE": "CA",
        "ZIP": "94720",
        "ZIP4": "NOT AVAILABLE",
        "TELEPHONE": "(510) 642-6000",
        "TYPE": "1",
        "STATUS": "A",
        "POPULATION": 54449,
        "COUNTY": "ALAMEDA",
        "COUNTYFIPS": "06001",
        "COUNTRY": "USA",
        "LATITUDE": 37.875759000000073,
        "LONGITUDE": -122.24850999999995,
        "NAICS_DESC": "COLLEGES, UNIVERSITIES, AND PROFESSIONAL SCHOOLS",
        "SOURCE": "https://nces.ed.gov/collegenavigator/?id=110635",
        "SOURCEDATE": "Thu, 31 Dec 2009 00:00:00 GMT",
        "VAL_METHOD": "IMAGERY",
        "VAL_DATE": "Thu, 07 Jul 2016 00:00:00 GMT",
        "WEBSITE": "www.berkeley.edu/",

        "COFIPS": "001",
        "SECTOR": "1",
        "LEVEL_": "2",
        "HI_OFFER": "11",
        "DEG_GRANT": "1",
        "LOCALE": "12",
        "CLOSE_DATE": "-2",
        "MERGE_ID": "-2",
        "ALIAS": "UC BERKELEY",
        "SIZE_SET": "15",
        "INST_SIZE": "5",
        "PT_ENROLL": 3525,
        "FT_ENROLL": 38802,
        "TOT_ENROLL": 42327,
        "HOUSING": "1",
        "DORM_CAP": 10104,
        "TOT_EMP": 12122,
        "SHELTER_ID": "NOT AVAILABLE"
      }
    },
    {
      "type": "Feature",
      "id": 616,
      "geometry": { "type": "Point", "coordinates": [-122.477904811, 37.721345016] },
      "properties": {
        "NAME": "SAN FRANCISCO STATE UNIVERSITY",
        "ADDRESS": "1600 HOLLOWAY AVE",
        "CITY": "SAN FRANCISCO",
        "STATE": "CA",
        "ZIP": "94132",
        "ZIP4": "NOT AVAILABLE",
        "TELEPHONE": "(415) 338-1111",
        "TYPE": "1",
        "STATUS": "A",
        "POPULATION": 30596,
        "COUNTY": "SAN FRANCISCO",
        "COUNTYFIPS": "06075",
        "COUNTRY": "USA",
        "LATITUDE": 37.721345016000043,
        "LONGITUDE": -122.47790481099997,
        "NAICS_DESC": "COLLEGES, UNIVERSITIES, AND PROFESSIONAL SCHOOLS",
        "SOURCE": "https://nces.ed.gov/collegenavigator/?id=122597",
        "SOURCEDATE": "Tue, 13 Oct 2009 00:00:00 GMT",
        "VAL_METHOD": "IMAGERY",
        "VAL_DATE": "Thu, 07 Jul 2016 00:00:00 GMT",
        "WEBSITE": "www.sfsu.edu/",

        "COFIPS": "075",
        "SECTOR": "1",
        "LEVEL_": "3",
        "HI_OFFER": "11",
        "DEG_GRANT": "1",
        "LOCALE": "11",
        "CLOSE_DATE": "-2",
        "MERGE_ID": "-2",
        "ALIAS": "SF State",
        "SIZE_SET": "17",
        "INST_SIZE": "5",
        "PT_ENROLL": 5330,
        "FT_ENROLL": 22019,
        "TOT_ENROLL": 27349,
        "HOUSING": "1",
        "DORM_CAP": 4416,
        "TOT_EMP": 3247,
        "SHELTER_ID": "NOT AVAILABLE"
      }
    }
  ]
}
